{"meta":{"code":200},"response":{"venue":{"id":"4cb38bf20cdc721ea943234f","name":"RadioShack","contact":{},"location":{"address":"57-36 Myrtle Ave","city":"Glendale","state":"NY","postalCode":"11385","lat":40.700397,"lng":-73.9023299},"categories":[{"id":"4bf58dd8d48988d122951735","name":"Electronics Store","pluralName":"Electronics Stores","icon":"https://foursquare.com/img/categories/shops/technology.png","parents":["Shops"],"primary":true}],"verified":true,"stats":{"checkinsCount":20,"usersCount":15},"hereNow":{"count":0,"groups":[{"type":"friends","name":"friends here","count":0,"items":[]},{"type":"others","name":"other people here","count":0,"items":[]}]},"mayor":{"count":2,"user":{"id":"5957506","firstName":"Will","lastName":"R.","photo":"https://playfoursquare.s3.amazonaws.com/userpix_thumbs/4ZBWQSJJZGVRGV3E.jpg","gender":"male","homeCity":"Queens, NY"}},"tips":{"count":0,"groups":[]},"tags":[],"specials":[{"id":"4da37ddb15ad530c110a9d52","type":"count","message":"Want 20% off? Check in at RadioShack for the first time & get 20% off your qualifying purchase. Ends 6/30/11. Exclusions apply. Ask associate for details.","description":"on your 1st check-in","unlocked":false,"icon":"newbie","title":"Newbie Special","state":"locked","provider":"foursquare","redemption":"standard"},{"id":"4da37c7915ad530c97039d52","type":"frequency","message":"Check in at RadioShack for 10% off qualifying purchases. Check in enough times to earn a spot as Mayor of this store and get 20% off! Ends 6/30/11. Some exclusions apply. Ask associate for details.","description":"every check-in","unlocked":false,"icon":"check-in","title":"Check-in Special","state":"locked","provider":"foursquare","redemption":"standard"}],"specialsNearby":[{"id":"4de50baa81dcc9bc5e880716","type":"frequency","message":"Special savings! Reserve your copy of Beyonce's new album, '4,' for only $9.99 when you show us you've checked-in! Valid 6/1-6/27. Employees: UPC 400315199039.","icon":"check-in","title":"Check-in Special","provider":"foursquare","redemption":"standard","venue":{"id":"4c0808ee98039521b0fac196","name":"FYE","contact":{"phone":"7183660204","twitter":"fyeguy"},"location":{"address":"5717 Myrtle Avenue","city":"Ridgewood","state":"New York","postalCode":"11385","country":"USA","lat":40.7004918,"lng":-73.9029919},"categories":[{"id":"4bf58dd8d48988d10d951735","name":"Record Shop","pluralName":"Record Shops","icon":"https://foursquare.com/img/categories/shops/record_shop.png","parents":["Shops"],"primary":true}],"verified":true,"stats":{"checkinsCount":109,"usersCount":47}}},{"id":"4dd68cb381dcd5bca599827b","type":"frequency","message":"Get 30% off any used CD or DVD when you check-in! Offer valid thru 7/31/11. Cannot be combined with other offers. Limit 1 transaction per customer per visit. Employees: Use code FSUS.","icon":"check-in","title":"Check-in Special","provider":"foursquare","redemption":"standard","venue":{"id":"4c0808ee98039521b0fac196","name":"FYE","contact":{"phone":"7183660204","twitter":"fyeguy"},"location":{"address":"5717 Myrtle Avenue","city":"Ridgewood","state":"New York","postalCode":"11385","country":"USA","lat":40.7004918,"lng":-73.9029919},"categories":[{"id":"4bf58dd8d48988d10d951735","name":"Record Shop","pluralName":"Record Shops","icon":"https://foursquare.com/img/categories/shops/record_shop.png","parents":["Shops"],"primary":true}],"verified":true,"stats":{"checkinsCount":109,"usersCount":47}}},{"id":"4defe89c81303a5167117678","type":"count","message":"Welcome to Payless! Congrats on your first check in with us!  Just for Payless Insiders: Take 10% off your entire purchase now with coupon code 47167!","finePrint":"Offer valid thru 7/8/2011. One coupon per purchase. Not valid on prior purchases. Offer excludes Shopko locations. Offer valid in-store or online at Payless.com","icon":"newbie","title":"Newbie Special","provider":"foursquare","redemption":"standard","venue":{"id":"4c704403fa49a1cdff9aa5e3","name":"Payless ShoeSource","contact":{"twitter":"PaylessInsider"},"location":{"address":"57-07 Myrtle Avenue","crossStreet":"Seneca Avenue","city":"Ridgewood","state":"NY","postalCode":"11385","lat":40.7004638,"lng":-73.9033625},"categories":[{"id":"4bf58dd8d48988d107951735","name":"Shoe Store","pluralName":"Shoe Stores","icon":"https://foursquare.com/img/categories/shops/apparel_shoestore.png","parents":["Shops","Clothing Stores"],"primary":true}],"verified":true,"stats":{"checkinsCount":8,"usersCount":6},"url":"http://www.payless.com"}},{"id":"4defe2cb1850828dfec475ca","type":"frequency","message":"Welcome to Payless! Thanks for checking in with us today! Just for Payless Insiders: Take $5 off of any $25 purchase now with coupon code 38257!","finePrint":"Offer valid thru 7/8/2011. One coupon per purchase. Not valid on prior purchases. Offer excludes Shopko locations. Offer valid in-store or online at Payless.com","icon":"check-in","title":"Check-in Special","provider":"foursquare","redemption":"standard","venue":{"id":"4c704403fa49a1cdff9aa5e3","name":"Payless ShoeSource","contact":{"twitter":"PaylessInsider"},"location":{"address":"57-07 Myrtle Avenue","crossStreet":"Seneca Avenue","city":"Ridgewood","state":"NY","postalCode":"11385","lat":40.7004638,"lng":-73.9033625},"categories":[{"id":"4bf58dd8d48988d107951735","name":"Shoe Store","pluralName":"Shoe Stores","icon":"https://foursquare.com/img/categories/shops/apparel_shoestore.png","parents":["Shops","Clothing Stores"],"primary":true}],"verified":true,"stats":{"checkinsCount":8,"usersCount":6},"url":"http://www.payless.com"}},{"id":"4defa12b814d40d589e3a3df","type":"frequency","message":"You've unlocked a chance to win a trip to space. But that's not all. Follow this link to see if you've won a free movie ticket, too. Every 88th check-in who participates wins!! www.CheckIntoSpace.com","finePrint":"You must follow the link and register after each check-in to be eligible for a prize.","icon":"check-in","title":"Check-in Special","provider":"foursquare","redemption":"standard","venue":{"id":"4bd0baf477b29c74695a8b82","name":"7-Eleven","contact":{"phone":"7184561956","twitter":"7eleven"},"location":{"address":"57-01 Myrtle Ave","crossStreet":"Seneca","city":"Ridgewood","state":"NY","postalCode":"11385","country":"USA","lat":40.700572,"lng":-73.903634},"categories":[{"id":"4bf58dd8d48988d1f9941735","name":"Food and Drink Shop","pluralName":"Food and Drink Shops","icon":"https://foursquare.com/img/categories/shops/default.png","parents":["Shops"],"primary":true},{"id":"4bf58dd8d48988d11f951735","name":"Deli or Bodega","pluralName":"Delis or Bodegas","icon":"https://foursquare.com/img/categories/shops/food_deli.png","parents":["Shops","Food and Drink Shops"]}],"verified":true,"stats":{"checkinsCount":253,"usersCount":96},"url":"http://www.7-Eleven.com"}}],"shortUrl":"http://4sq.com/9ufpx3","timeZone":"America/New_York","beenHere":{"count":0},"photos":{"count":0,"groups":[{"type":"checkin","name":"friends' checkin photos","count":0,"items":[]},{"type":"venue","name":"venue photos","count":0,"items":[]}]},"todos":{"count":0,"items":[]}}}}