{"meta":{"code":200},"response":{"venues":[{"id":"4116be80f964a520fc0b1fe3","name":"Ulysses Folk House","contact":{"phone":"2124820400","twitter":"ulyssesfolkhous"},"location":{"address":"95 Pearl St","crossStreet":"at Stone St","city":"New York","state":"NY","postalCode":"10005","country":"USA","lat":40.70443641202592,"lng":-74.01012361049652,"distance":986},"categories":[{"id":"4bf58dd8d48988d116941735","name":"Bar","pluralName":"Bars","icon":"https://foursquare.com/img/categories/nightlife/default.png","parents":["Nightlife Spots"],"primary":true}],"verified":true,"stats":{"checkinsCount":5656,"usersCount":3453},"todos":{"count":0},"hereNow":{"count":12}},{"id":"4ada0b96f964a520b61d21e3","name":"Regal Cinemas Court Street Stadium 12","contact":{"phone":"7182467459"},"location":{"address":"106 Court St","crossStreet":"Atlantic Ave","city":"Brooklyn","state":"NY","postalCode":"11201","country":"USA","lat":40.690563526728326,"lng":-73.99206429719925,"distance":1245},"categories":[{"id":"4bf58dd8d48988d17f941735","name":"Movie Theater","pluralName":"Movie Theaters","icon":"https://foursquare.com/img/categories/arts_entertainment/movietheater.png","parents":["Arts & Entertainment"],"primary":true},{"id":"4bf58dd8d48988d180941735","name":"Multiplex","pluralName":"Multiplexes","icon":"https://foursquare.com/img/categories/arts_entertainment/movietheater.png","parents":["Arts & Entertainment","Movie Theaters"]}],"verified":false,"stats":{"checkinsCount":4314,"usersCount":2828},"todos":{"count":0},"hereNow":{"count":11}},{"id":"4a737bf8f964a52091dc1fe3","name":"MTA Subway - Manhattan Bridge (B/D/N/Q)","contact":{"twitter":"NYCTSubwayScoop"},"location":{"address":"Manhattan Bridge","crossStreet":"East River","city":"New York","state":"NY","lat":40.707449752719434,"lng":-73.99081707000732,"distance":1135},"categories":[{"id":"4bf58dd8d48988d1fd931735","name":"Subway","pluralName":"Subways","icon":"https://foursquare.com/img/categories/travel/subway.png","parents":["Travel Spots"],"primary":true}],"verified":false,"stats":{"checkinsCount":44130,"usersCount":4822},"todos":{"count":0},"hereNow":{"count":8}},{"id":"4a43bcb7f964a520bba61fe3","name":"Brooklyn Bridge","contact":{},"location":{"address":"Adams St/Brooklyn Bridge Blvd","city":"Brooklyn","state":"NY","postalCode":"10038","country":"USA","lat":40.70536767492135,"lng":-73.9960527420044,"distance":684},"categories":[{"id":"4bf58dd8d48988d1df941735","name":"Bridge","pluralName":"Bridges","icon":"https://foursquare.com/img/categories/parks_outdoors/default.png","parents":["Great Outdoors"],"primary":true},{"id":"4bf58dd8d48988d162941735","name":"Other Great Outdoors","pluralName":"Other Great Outdoors","icon":"https://foursquare.com/img/categories/parks_outdoors/default.png","parents":["Great Outdoors"]},{"id":"4bf58dd8d48988d1f9931735","name":"Highway or Road","pluralName":"Highways or Roads","icon":"https://foursquare.com/img/categories/travel/highway.png","parents":["Travel Spots"]},{"id":"4bf58dd8d48988d1e1931735","name":"Arcade","pluralName":"Arcades","icon":"https://foursquare.com/img/categories/arts_entertainment/arcade.png","parents":["Arts & Entertainment"]},{"id":"4bf58dd8d48988d1f6931735","name":"General Travel","pluralName":"General Travel","icon":"https://foursquare.com/img/categories/travel/default.png","parents":["Travel Spots"]}],"verified":false,"stats":{"checkinsCount":31709,"usersCount":18649},"todos":{"count":0},"hereNow":{"count":6}},{"id":"4ae9cc3af964a52087b621e3","name":"2 Gold Street Apartments","contact":{},"location":{"address":"2 Gold St","crossStreet":"at Maiden Lane","city":"New York","state":"NY","postalCode":"10038","lat":40.707372,"lng":-74.007162,"distance":1019},"categories":[{"id":"4bf58dd8d48988d103941735","name":"Home","pluralName":"Homes","icon":"https://foursquare.com/img/categories/building/home.png","parents":["Homes, Work, Others"],"primary":true}],"verified":false,"stats":{"checkinsCount":10285,"usersCount":4414},"todos":{"count":0},"hereNow":{"count":6}},{"id":"4b11a5e0f964a5205c8123e3","name":"Vintry Wine & Whiskey","contact":{"twitter":"vintrynyc"},"location":{"address":"57 Stone St","crossStreet":"Hanover St","city":"New York","state":"NY","postalCode":"10004","lat":40.70437947850076,"lng":-74.01035964488983,"distance":1001},"categories":[{"id":"4bf58dd8d48988d123941735","name":"Wine Bar","pluralName":"Wine Bars","icon":"https://foursquare.com/img/categories/nightlife/wine.png","parents":["Nightlife Spots"],"primary":true}],"verified":false,"stats":{"checkinsCount":1092,"usersCount":576},"url":"http://www.Vintrystonestnyc.com","todos":{"count":0},"hereNow":{"count":6}},{"id":"3fd66200f964a520bce81ee3","name":"Jeremy's Ale House","contact":{"phone":"2129643537"},"location":{"address":"228 Front St.","crossStreet":"at Beekman St.","city":"New York","state":"NY","postalCode":"10038","lat":40.7076409,"lng":-74.0020934,"distance":868},"categories":[{"id":"4bf58dd8d48988d117941735","name":"Beer Garden","pluralName":"Beer Gardens","icon":"https://foursquare.com/img/categories/nightlife/default.png","parents":["Nightlife Spots"],"primary":true},{"id":"4bf58dd8d48988d116941735","name":"Bar","pluralName":"Bars","icon":"https://foursquare.com/img/categories/nightlife/default.png","parents":["Nightlife Spots"]},{"id":"4bf58dd8d48988d118941735","name":"Dive Bar","pluralName":"Dive Bars","icon":"https://foursquare.com/img/categories/nightlife/default.png","parents":["Nightlife Spots"]}],"verified":false,"stats":{"checkinsCount":1391,"usersCount":970},"todos":{"count":0},"hereNow":{"count":5}},{"id":"4b39872ef964a5207d5d25e3","name":"Roebling Inn","contact":{"phone":"7184880048"},"location":{"address":"97 Atlantic Avenue","crossStreet":"Henry St.","city":"Brooklyn","state":"NY","postalCode":"11201","country":"USA","lat":40.691084167968576,"lng":-73.99717390537262,"distance":1020},"categories":[{"id":"4bf58dd8d48988d116941735","name":"Bar","pluralName":"Bars","icon":"https://foursquare.com/img/categories/nightlife/default.png","parents":["Nightlife Spots"],"primary":true}],"verified":false,"stats":{"checkinsCount":1092,"usersCount":545},"todos":{"count":0},"hereNow":{"count":5}},{"id":"4dda977ad22d38ef4332c419","name":"Shake Shack","contact":{},"location":{"address":"215 Murray Street","crossStreet":"btwn West and North End","city":"New York","state":"New York","postalCode":"10282","lat":40.713729,"lng":-74.013755,"distance":1919},"categories":[{"id":"4bf58dd8d48988d16c941735","name":"Burger Joint","pluralName":"Burger Joints","icon":"https://foursquare.com/img/categories/food/burger.png","parents":["Food"],"primary":true}],"verified":false,"stats":{"checkinsCount":101,"usersCount":95},"todos":{"count":0},"hereNow":{"count":5}}]}}