{"meta":{"code":200},"response":{"specials":{"count":28,"items":[{"id":"4da37ddb15ad530c110a9d52","type":"count","message":"Want 20% off? Check in at RadioShack for the first time & get 20% off your qualifying purchase. Ends 6/30/11. Exclusions apply. Ask associate for details.","icon":"newbie","title":"Newbie Special","provider":"foursquare","redemption":"standard","venue":{"id":"4cb38bf20cdc721ea943234f","name":"RadioShack","contact":{},"location":{"address":"57-36 Myrtle Ave","city":"Glendale","state":"NY","postalCode":"11385","lat":40.700397,"lng":-73.9023299,"distance":201},"categories":[{"id":"4bf58dd8d48988d122951735","name":"High Tech Outlet","pluralName":"High Tech Outlets","icon":"https://foursquare.com/img/categories/shops/technology.png","parents":["Shops"],"primary":true}],"verified":true,"stats":{"checkinsCount":20,"usersCount":15}}},{"id":"4da37c7915ad530c97039d52","type":"frequency","message":"Check in at RadioShack for 10% off qualifying purchases. Check in enough times to earn a spot as Mayor of this store and get 20% off! Ends 6/30/11. Some exclusions apply. Ask associate for details.","icon":"check-in","title":"Check-in Special","provider":"foursquare","redemption":"standard","venue":{"id":"4cb38bf20cdc721ea943234f","name":"RadioShack","contact":{},"location":{"address":"57-36 Myrtle Ave","city":"Glendale","state":"NY","postalCode":"11385","lat":40.700397,"lng":-73.9023299,"distance":201},"categories":[{"id":"4bf58dd8d48988d122951735","name":"High Tech Outlet","pluralName":"High Tech Outlets","icon":"https://foursquare.com/img/categories/shops/technology.png","parents":["Shops"],"primary":true}],"verified":true,"stats":{"checkinsCount":20,"usersCount":15}}},{"id":"4dda58d63151cc0a7d4407bb","type":"frequency","message":"Get $2 off Brad Paisley's new album, 'This Is Country Music,' when you show us you've checked in! Valid 5/23 through 5/30. Employees: Use code BRAD.","icon":"check-in","title":"Check-in Special","provider":"foursquare","redemption":"standard","venue":{"id":"4c0808ee98039521b0fac196","name":"FYE","contact":{"phone":"7183660204","twitter":"fyeguy"},"location":{"address":"5717 Myrtle Avenue","city":"Ridgewood","state":"New York","postalCode":"11385","country":"USA","lat":40.7004918,"lng":-73.9029919,"distance":258},"categories":[{"id":"4bf58dd8d48988d10d951735","name":"Record Shop","pluralName":"Record Shops","icon":"https://foursquare.com/img/categories/shops/record_shop.png","parents":["Shops"],"primary":true}],"verified":true,"stats":{"checkinsCount":108,"usersCount":47}}},{"id":"4dd68cb381dcd5bca599827b","type":"frequency","message":"Get 30% off any used CD or DVD when you check-in! Offer valid thru 7/31/11. Cannot be combined with other offers. Limit 1 transaction per customer per visit. Employees: Use code FSUS.","icon":"check-in","title":"Check-in Special","provider":"foursquare","redemption":"standard","venue":{"id":"4c0808ee98039521b0fac196","name":"FYE","contact":{"phone":"7183660204","twitter":"fyeguy"},"location":{"address":"5717 Myrtle Avenue","city":"Ridgewood","state":"New York","postalCode":"11385","country":"USA","lat":40.7004918,"lng":-73.9029919,"distance":258},"categories":[{"id":"4bf58dd8d48988d10d951735","name":"Record Shop","pluralName":"Record Shops","icon":"https://foursquare.com/img/categories/shops/record_shop.png","parents":["Shops"],"primary":true}],"verified":true,"stats":{"checkinsCount":108,"usersCount":47}}},{"id":"4dd12b41814d79ce11cb16e3","type":"frequency","message":"Welcome to Payless! Thanks for checking in with us today! Just for Payless Insiders: Take $5 off of any $25 purchase now with coupon code 38257!","finePrint":"Offer valid thru 6/8/2011. One coupon per purchase. Not valid on prior purchases. Offer excludes Shopko locations. Offer valid in-store or online at Payless.com","icon":"check-in","title":"Check-in Special","provider":"foursquare","redemption":"standard","venue":{"id":"4c704403fa49a1cdff9aa5e3","name":"Payless ShoeSource","contact":{"twitter":"PaylessInsider"},"location":{"address":"57-07 Myrtle Avenue","crossStreet":"Seneca Avenue","city":"Ridgewood","state":"NY","postalCode":"11385","lat":40.7004638,"lng":-73.9033625,"distance":288},"categories":[{"id":"4bf58dd8d48988d107951735","name":"Shoe Store","pluralName":"Shoe Stores","icon":"https://foursquare.com/img/categories/shops/apparel_shoestore.png","parents":["Shops","Clothing Stores"],"primary":true}],"verified":true,"stats":{"checkinsCount":6,"usersCount":5},"url":"http://www.payless.com"}},{"id":"4d37394f5f8fa09020eae68b","type":"count","message":"Check in here and get $25 off of your tax preparation!\r\n\r\n(Show this to your tax preparer before you begin your return and they will use coupon code JNFEK)","icon":"newbie","title":"Newbie Special","provider":"foursquare","redemption":"standard","venue":{"id":"4cdd59a2901e9eb0a4f5c0ef","name":"Jackson Hewitt Tax Service","contact":{"phone":"8775801040","twitter":"jacksonhewitt"},"location":{"address":"54-56 Myrtle Avenue","city":"Ridgewood","state":"NY","postalCode":"11385","country":"USA","lat":40.7001028,"lng":-73.9056922,"distance":480},"categories":[],"verified":true,"stats":{"checkinsCount":0,"usersCount":0}}},{"id":"4dd12b41814d79ce11cb16e3","type":"frequency","message":"Welcome to Payless! Thanks for checking in with us today! Just for Payless Insiders: Take $5 off of any $25 purchase now with coupon code 38257!","finePrint":"Offer valid thru 6/8/2011. One coupon per purchase. Not valid on prior purchases. Offer excludes Shopko locations. Offer valid in-store or online at Payless.com","icon":"check-in","title":"Check-in Special","provider":"foursquare","redemption":"standard","venue":{"id":"4bb4e10586a8d13a4a08df7f","name":"Payless ShoeSource","contact":{"phone":"7183867752","twitter":"PaylessInsider"},"location":{"address":"6679 Fresh Pond Rd","city":"Flushing","state":"NY","postalCode":"11385","country":"USA","lat":40.7063244,"lng":-73.8968281,"distance":753},"categories":[{"id":"4bf58dd8d48988d107951735","name":"Shoe Store","pluralName":"Shoe Stores","icon":"https://foursquare.com/img/categories/shops/apparel_shoestore.png","parents":["Shops","Clothing Stores"],"primary":true}],"verified":false,"stats":{"checkinsCount":11,"usersCount":9},"url":"http://www.payless.com"}},{"id":"4dd6a5f9814d85e931fe4aba","type":"count","message":"Non-members of Lucille Roberts gyms get a FREE 1-week membership when you check in. No purchase necessary, no credit card required. Show up, check in, and work out for free for a week!","finePrint":"Photo ID required. Newbies have full gym access, including unlimited classes, like Zumba, yoga, Total Body, pilates, and much, much more! For class schedules: www.lucilleroberts.com","icon":"newbie","title":"Newbie Special","provider":"foursquare","redemption":"standard","venue":{"id":"4bad22c2f964a52057313be3","name":"Lucille Roberts - Myrtle Ave.","contact":{},"location":{"address":"5432 Myrtle Ave.","city":"Ridgewood","state":"NY","postalCode":"11385","lat":40.6996939,"lng":-73.9092461,"distance":781},"categories":[{"id":"4bf58dd8d48988d176941735","name":"Gym","pluralName":"Gyms","icon":"https://foursquare.com/img/categories/building/gym.png","parents":["Homes, Work, Others","Gyms or Fitness Centers"],"primary":true}],"verified":true,"stats":{"checkinsCount":66,"usersCount":23},"url":"http://www.lucilleroberts.com/womens-gym-Myrtle-Avenue"}},{"id":"4ceffec0708060fc04ccf368","type":"regular","message":"Special is unlocked... when you check in to our office and are receiving a regular check up. You will receive a FREE GOODIE BAG!!! Bag includes a complimentary CREST toothbrush and tooth paste!","icon":"frequency","title":"Loyalty Special","provider":"foursquare","redemption":"standard","venue":{"id":"4c5cc21ebfa59521387f78ff","name":"Babak Behmanesh DDS PC","contact":{"phone":"7184185555"},"location":{"address":"63-54 Fresh Pond Rd","crossStreet":"GROVE ST","city":"Ridgewood","state":"NY","postalCode":"11385","lat":40.71005225842896,"lng":-73.89975070953369,"distance":1119},"categories":[],"verified":true,"stats":{"checkinsCount":13,"usersCount":7}}},{"id":"4d94bf950f604eb960975839","type":"frequency","message":"Check in to receive 10% off your entire purchase!*","finePrint":"*Cannot be combined with any other offer. Excludes advertised sale items, gift cards, prior purchases, special orders and Tempur-Pedic® products. Extended financing is not available with this offer.","icon":"check-in","title":"Check-in Special","provider":"foursquare","redemption":"standard","venue":{"id":"4cc48ee842d1b60c77691e13","name":"Raymour & Flanigan Furniture | Metropolitan Avenue","contact":{"phone":"7189074687","twitter":"raymourflanigan"},"location":{"address":"66-26 Metropolitan Ave #730","city":"Middle Village","state":"New York","postalCode":"11379","lat":40.710036,"lng":-73.8916612,"distance":1320},"categories":[{"id":"4bf58dd8d48988d1f8941735","name":"Furniture or Home Store","pluralName":"Furniture or Home Stores","icon":"https://foursquare.com/img/categories/shops/furniture.png","parents":["Shops"],"primary":true}],"verified":true,"stats":{"checkinsCount":10,"usersCount":8},"url":"http://www.raymourflanigan.com"}},{"id":"4dda6b051850807ea46507fd","type":"frequency","message":"Save $100 on NEW! Banzai Falls Water Park* (575327)","finePrint":"Sale $299.99. No coupon needed. Features climbing wall, slide, water cannon, basketball and hoop, spraying arches and blower. Inflates in 2 minutes. *Quantities limited; no rain checks.","icon":"check-in","title":"Check-in Special","provider":"foursquare","redemption":"standard","venue":{"id":"4bcca99a68f976b0bf086383","name":"Toys\"Я\"Us","contact":{"phone":"7183262038","twitter":"ToysRUs"},"location":{"address":"66-26 Metropolitan Ave.","city":"Queens","state":"NY","postalCode":"11379","country":"USA","lat":40.71125014,"lng":-73.89326512813568,"distance":1375},"categories":[{"id":"4bf58dd8d48988d1f3941735","name":"Toy or Game Store","pluralName":"Toy or Game Stores","icon":"https://foursquare.com/img/categories/shops/toys.png","parents":["Shops"],"primary":true}],"verified":true,"stats":{"checkinsCount":344,"usersCount":210}}},{"id":"4d37394f5f8fa09020eae68b","type":"count","message":"Check in here and get $25 off of your tax preparation!\r\n\r\n(Show this to your tax preparer before you begin your return and they will use coupon code JNFEK)","icon":"newbie","title":"Newbie Special","provider":"foursquare","redemption":"standard","venue":{"id":"4cdd5b3a901e9eb06311c1ef","name":"Jackson Hewitt Tax Service","contact":{"phone":"8775801040","twitter":"jacksonhewitt"},"location":{"address":"439 Knickerbocker Ave","city":"Brooklyn","state":"NY","postalCode":"11237","country":"USA","lat":40.699367,"lng":-73.918856,"distance":1592},"categories":[],"verified":true,"stats":{"checkinsCount":0,"usersCount":0}}},{"id":"4dd12b41814d79ce11cb16e3","type":"frequency","message":"Welcome to Payless! Thanks for checking in with us today! Just for Payless Insiders: Take $5 off of any $25 purchase now with coupon code 38257!","finePrint":"Offer valid thru 6/8/2011. One coupon per purchase. Not valid on prior purchases. Offer excludes Shopko locations. Offer valid in-store or online at Payless.com","icon":"check-in","title":"Check-in Special","provider":"foursquare","redemption":"standard","venue":{"id":"4c7e76300b2a9eb03574651f","name":"Payless ShoeSource","contact":{"phone":"7189192034","twitter":"PaylessInsider"},"location":{"address":"379 Knickerbocker Ave","city":"Brooklyn","state":"NY","postalCode":"11237-3701","lat":40.700256,"lng":-73.920763,"distance":1752},"categories":[{"id":"4bf58dd8d48988d107951735","name":"Shoe Store","pluralName":"Shoe Stores","icon":"https://foursquare.com/img/categories/shops/apparel_shoestore.png","parents":["Shops","Clothing Stores"],"primary":true}],"verified":true,"stats":{"checkinsCount":6,"usersCount":6},"url":"http://www.payless.com"}},{"id":"4da37ddb15ad530c110a9d52","type":"count","message":"Want 20% off? Check in at RadioShack for the first time & get 20% off your qualifying purchase. Ends 6/30/11. Exclusions apply. Ask associate for details.","icon":"newbie","title":"Newbie Special","provider":"foursquare","redemption":"standard","venue":{"id":"4c6045e6c6a103bbd2ff675b","name":"RadioShack","contact":{},"location":{"address":"366 KNICKERBOCKER AVE","city":"BROOKLYN","state":"NY","postalCode":"11237","lat":40.700452,"lng":-73.921492,"distance":1814},"categories":[{"id":"4bf58dd8d48988d122951735","name":"High Tech Outlet","pluralName":"High Tech Outlets","icon":"https://foursquare.com/img/categories/shops/technology.png","parents":["Shops"],"primary":true}],"verified":true,"stats":{"checkinsCount":10,"usersCount":8}}},{"id":"4da37c7915ad530c97039d52","type":"frequency","message":"Check in at RadioShack for 10% off qualifying purchases. Check in enough times to earn a spot as Mayor of this store and get 20% off! Ends 6/30/11. Some exclusions apply. Ask associate for details.","icon":"check-in","title":"Check-in Special","provider":"foursquare","redemption":"standard","venue":{"id":"4c6045e6c6a103bbd2ff675b","name":"RadioShack","contact":{},"location":{"address":"366 KNICKERBOCKER AVE","city":"BROOKLYN","state":"NY","postalCode":"11237","lat":40.700452,"lng":-73.921492,"distance":1814},"categories":[{"id":"4bf58dd8d48988d122951735","name":"High Tech Outlet","pluralName":"High Tech Outlets","icon":"https://foursquare.com/img/categories/shops/technology.png","parents":["Shops"],"primary":true}],"verified":true,"stats":{"checkinsCount":10,"usersCount":8}}},{"id":"4da37ddb15ad530c110a9d52","type":"count","message":"Want 20% off? Check in at RadioShack for the first time & get 20% off your qualifying purchase. Ends 6/30/11. Exclusions apply. Ask associate for details.","icon":"newbie","title":"Newbie Special","provider":"foursquare","redemption":"standard","venue":{"id":"4bfeec1de584c92862726d25","name":"RadioShack","contact":{"phone":"7183263927"},"location":{"address":"6918 Metropolitan Ave","crossStreet":"at Metropolitan Ave Shopping Center","city":"Middle Village","state":"NY","postalCode":"11379","lat":40.71214945,"lng":-73.885554,"distance":1820},"categories":[{"id":"4bf58dd8d48988d122951735","name":"High Tech Outlet","pluralName":"High Tech Outlets","icon":"https://foursquare.com/img/categories/shops/technology.png","parents":["Shops"],"primary":true}],"verified":true,"stats":{"checkinsCount":33,"usersCount":26}}},{"id":"4da37c7915ad530c97039d52","type":"frequency","message":"Check in at RadioShack for 10% off qualifying purchases. Check in enough times to earn a spot as Mayor of this store and get 20% off! Ends 6/30/11. Some exclusions apply. Ask associate for details.","icon":"check-in","title":"Check-in Special","provider":"foursquare","redemption":"standard","venue":{"id":"4bfeec1de584c92862726d25","name":"RadioShack","contact":{"phone":"7183263927"},"location":{"address":"6918 Metropolitan Ave","crossStreet":"at Metropolitan Ave Shopping Center","city":"Middle Village","state":"NY","postalCode":"11379","lat":40.71214945,"lng":-73.885554,"distance":1820},"categories":[{"id":"4bf58dd8d48988d122951735","name":"High Tech Outlet","pluralName":"High Tech Outlets","icon":"https://foursquare.com/img/categories/shops/technology.png","parents":["Shops"],"primary":true}],"verified":true,"stats":{"checkinsCount":33,"usersCount":26}}},{"id":"4d933372f7e8dcb36bb0cb12","type":"frequency","message":"Free small Classic Milkshake for every 3rd check-in. As always, free small Classic Milkshake for Mayors too.","finePrint":"Not available on Premium Milkshakes. Limit one per customer per visit.","icon":"frequency","title":"Loyalty Special","provider":"foursquare","redemption":"standard","venue":{"id":"4b3fa4b9f964a52018ab25e3","name":"Checkers","contact":{"phone":"7184436160"},"location":{"address":"1611 Broadway","crossStreet":"at Eldert St","city":"Brooklyn","state":"NY","postalCode":"11207","country":"USA","lat":40.685437,"lng":-73.914509,"distance":2031},"categories":[{"id":"4bf58dd8d48988d16c941735","name":"Burger Joint","pluralName":"Burger Joints","icon":"https://foursquare.com/img/categories/food/burger.png","parents":["Food"],"primary":true},{"id":"4bf58dd8d48988d16e941735","name":"Fast Food Restaurant","pluralName":"Fast Food Restaurants","icon":"https://foursquare.com/img/categories/food/fastfood.png","parents":["Food"]}],"verified":true,"stats":{"checkinsCount":208,"usersCount":92}}},{"id":"4d37394f5f8fa09020eae68b","type":"count","message":"Check in here and get $25 off of your tax preparation!\r\n\r\n(Show this to your tax preparer before you begin your return and they will use coupon code JNFEK)","icon":"newbie","title":"Newbie Special","provider":"foursquare","redemption":"standard","venue":{"id":"4cdd662b901e9eb072d0c1ef","name":"Jackson Hewitt Tax Service","contact":{"phone":"7189190510","twitter":"jacksonhewitt"},"location":{"address":"1362 Broadway Avenue","city":"Brooklyn","state":"NY","postalCode":"11221","country":"USA","lat":40.689638,"lng":-73.922294,"distance":2207},"categories":[],"verified":true,"stats":{"checkinsCount":0,"usersCount":0}}},{"id":"4dd12b41814d79ce11cb16e3","type":"frequency","message":"Welcome to Payless! Thanks for checking in with us today! Just for Payless Insiders: Take $5 off of any $25 purchase now with coupon code 38257!","finePrint":"Offer valid thru 6/8/2011. One coupon per purchase. Not valid on prior purchases. Offer excludes Shopko locations. Offer valid in-store or online at Payless.com","icon":"check-in","title":"Check-in Special","provider":"foursquare","redemption":"standard","venue":{"id":"4c7e762a0b2a9eb02a74651f","name":"Payless ShoeSource","contact":{"phone":"7185742796","twitter":"PaylessInsider"},"location":{"address":"1285-A Broadway","city":"Brooklyn","state":"NY","postalCode":"11221-2908","lat":40.69102,"lng":-73.92446,"distance":2293},"categories":[{"id":"4bf58dd8d48988d107951735","name":"Shoe Store","pluralName":"Shoe Stores","icon":"https://foursquare.com/img/categories/shops/apparel_shoestore.png","parents":["Shops","Clothing Stores"],"primary":true}],"verified":true,"stats":{"checkinsCount":1,"usersCount":1},"url":"http://www.payless.com"}},{"id":"4bfc88df86ba62b5dacf88b3","type":"mayor","message":"FOR THE MAYOR: A free coffee between 9am-5pm or a free amber beer between 5-8pm!","icon":"mayor","title":"Mayor Special","provider":"foursquare","redemption":"standard","venue":{"id":"4aea19bff964a52052b921e3","name":"Brooklyn Fire Proof East","contact":{},"location":{"address":"119 Ingraham St","crossStreet":"Porter Av","city":"Brooklyn","state":"NY","postalCode":"11237","lat":40.707866,"lng":-73.92923,"distance":2617},"categories":[{"id":"4bf58dd8d48988d1e9931735","name":"Rock Club","pluralName":"Rock Clubs","icon":"https://foursquare.com/img/categories/arts_entertainment/musicvenue_rockclub.png","parents":["Arts & Entertainment","Music Venues"],"primary":true},{"id":"4bf58dd8d48988d16d941735","name":"Café","pluralName":"Cafés","icon":"https://foursquare.com/img/categories/food/cafe.png","parents":["Food"]},{"id":"4bf58dd8d48988d1e0931735","name":"Coffee Shop","pluralName":"Coffee Shops","icon":"https://foursquare.com/img/categories/food/coffeeshop.png","parents":["Food"]},{"id":"4bf58dd8d48988d1c5941735","name":"Sandwich Place","pluralName":"Sandwich Places","icon":"https://foursquare.com/img/categories/food/sandwiches.png","parents":["Food"]},{"id":"4bf58dd8d48988d11b941735","name":"Pub","pluralName":"Pubs","icon":"https://foursquare.com/img/categories/nightlife/default.png","parents":["Nightlife Spots"]},{"id":"4bf58dd8d48988d116941735","name":"Bar","pluralName":"Bars","icon":"https://foursquare.com/img/categories/nightlife/default.png","parents":["Nightlife Spots"]}],"verified":true,"stats":{"checkinsCount":1221,"usersCount":670}}},{"id":"4d37394f5f8fa09020eae68b","type":"count","message":"Check in here and get $25 off of your tax preparation!\r\n\r\n(Show this to your tax preparer before you begin your return and they will use coupon code JNFEK)","icon":"newbie","title":"Newbie Special","provider":"foursquare","redemption":"standard","venue":{"id":"4cdd63d9901e9eb055a7c1ef","name":"Jackson Hewitt Tax Service","contact":{"phone":"7184844129","twitter":"jacksonhewitt"},"location":{"address":"2693 Atlantic Ave.","city":"Brooklyn","state":"NY","postalCode":"11207","country":"USA","lat":40.67597,"lng":-73.894929,"distance":2709},"categories":[],"verified":true,"stats":{"checkinsCount":1,"usersCount":1}}},{"id":"4d37394f5f8fa09020eae68b","type":"count","message":"Check in here and get $25 off of your tax preparation!\r\n\r\n(Show this to your tax preparer before you begin your return and they will use coupon code JNFEK)","icon":"newbie","title":"Newbie Special","provider":"foursquare","redemption":"standard","venue":{"id":"4cdd6495901e9eb041b4c1ef","name":"Jackson Hewitt Tax Service","contact":{"phone":"7183351267","twitter":"jacksonhewitt"},"location":{"address":"6647 Grand Ave","city":"Maspeth","state":"NY","postalCode":"11378","country":"USA","lat":40.724704,"lng":-73.89762,"distance":2757},"categories":[],"verified":true,"stats":{"checkinsCount":1,"usersCount":1}}},{"id":"4d37394f5f8fa09020eae68b","type":"count","message":"Check in here and get $25 off of your tax preparation!\r\n\r\n(Show this to your tax preparer before you begin your return and they will use coupon code JNFEK)","icon":"newbie","title":"Newbie Special","provider":"foursquare","redemption":"standard","venue":{"id":"4cdd61df901e9eb0ff85c1ef","name":"Jackson Hewitt Tax Service","contact":{"phone":"7183451773","twitter":"jacksonhewitt"},"location":{"address":"287 Saratoga Ave","city":"Brooklyn","state":"NY","postalCode":"11233","country":"USA","lat":40.675842,"lng":-73.916544,"distance":3030},"categories":[],"verified":true,"stats":{"checkinsCount":0,"usersCount":0}}},{"id":"4dd07d3f3151a1df1e5bfb91","type":"flash","message":"Free Champagne with a Half Hour In Champagne Room","finePrint":"Simple - Buy a half hour in Champange Room and Get FREE Champagne","icon":"flash","title":"Flash Special","provider":"foursquare","redemption":"standard","venue":{"id":"4bd798340b779c74dd9f05a0","name":"Rouge Adult Gentlemen's Strip Club","contact":{"phone":"7183668900","twitter":"rougeny"},"location":{"address":"55-61 58th Street","city":"Maspeth","state":"NY","postalCode":"11378","lat":40.725714,"lng":-73.9118359,"distance":3031},"categories":[{"id":"4bf58dd8d48988d183941735","name":"Strip Club","pluralName":"Strip Clubs","icon":"https://foursquare.com/img/categories/arts_entertainment/stripclub.png","parents":["Arts & Entertainment"],"primary":true},{"id":"4bf58dd8d48988d116941735","name":"Bar","pluralName":"Bars","icon":"https://foursquare.com/img/categories/nightlife/default.png","parents":["Nightlife Spots"]},{"id":"4bf58dd8d48988d11f941735","name":"Nightclub","pluralName":"Nightclubs","icon":"https://foursquare.com/img/categories/nightlife/danceparty.png","parents":["Nightlife Spots"]}],"verified":true,"stats":{"checkinsCount":484,"usersCount":95},"url":"http://clubrougeny.com"}},{"id":"4dd07a2b3151a1df1e5beddc","type":"frequency","message":"$50 Off Bottle Service - Web Special - Just show to manager and mention \"Web $50 Off Bottle\" Special","icon":"check-in","title":"Check-in Special","provider":"foursquare","redemption":"standard","venue":{"id":"4bd798340b779c74dd9f05a0","name":"Rouge Adult Gentlemen's Strip Club","contact":{"phone":"7183668900","twitter":"rougeny"},"location":{"address":"55-61 58th Street","city":"Maspeth","state":"NY","postalCode":"11378","lat":40.725714,"lng":-73.9118359,"distance":3031},"categories":[{"id":"4bf58dd8d48988d183941735","name":"Strip Club","pluralName":"Strip Clubs","icon":"https://foursquare.com/img/categories/arts_entertainment/stripclub.png","parents":["Arts & Entertainment"],"primary":true},{"id":"4bf58dd8d48988d116941735","name":"Bar","pluralName":"Bars","icon":"https://foursquare.com/img/categories/nightlife/default.png","parents":["Nightlife Spots"]},{"id":"4bf58dd8d48988d11f941735","name":"Nightclub","pluralName":"Nightclubs","icon":"https://foursquare.com/img/categories/nightlife/danceparty.png","parents":["Nightlife Spots"]}],"verified":true,"stats":{"checkinsCount":484,"usersCount":95},"url":"http://clubrougeny.com"}},{"id":"4da37ddb15ad530c110a9d52","type":"count","message":"Want 20% off? Check in at RadioShack for the first time & get 20% off your qualifying purchase. Ends 6/30/11. Exclusions apply. Ask associate for details.","icon":"newbie","title":"Newbie Special","provider":"foursquare","redemption":"standard","venue":{"id":"4c6045b8c6a103bb82ff675b","name":"RadioShack","contact":{},"location":{"address":"7001 GRAND AVE","city":"MASPETH","state":"NY","postalCode":"11378","lat":40.72799,"lng":-73.89174,"distance":3192},"categories":[{"id":"4bf58dd8d48988d122951735","name":"High Tech Outlet","pluralName":"High Tech Outlets","icon":"https://foursquare.com/img/categories/shops/technology.png","parents":["Shops"],"primary":true}],"verified":true,"stats":{"checkinsCount":24,"usersCount":15}}},{"id":"4da37c7915ad530c97039d52","type":"frequency","message":"Check in at RadioShack for 10% off qualifying purchases. Check in enough times to earn a spot as Mayor of this store and get 20% off! Ends 6/30/11. Some exclusions apply. Ask associate for details.","icon":"check-in","title":"Check-in Special","provider":"foursquare","redemption":"standard","venue":{"id":"4c6045b8c6a103bb82ff675b","name":"RadioShack","contact":{},"location":{"address":"7001 GRAND AVE","city":"MASPETH","state":"NY","postalCode":"11378","lat":40.72799,"lng":-73.89174,"distance":3192},"categories":[{"id":"4bf58dd8d48988d122951735","name":"High Tech Outlet","pluralName":"High Tech Outlets","icon":"https://foursquare.com/img/categories/shops/technology.png","parents":["Shops"],"primary":true}],"verified":true,"stats":{"checkinsCount":24,"usersCount":15}}}]}}}
